[
  {
    "name": "BA00000383",
    "latitude": -12.99833,
    "longitude": -38.65778,
    "state": "Bahia",
    "location": "Coroa I",
    "county": "Vera Cruz",
    "depth": "60 Metros",
    "nivelestatico":"0 metros",
    "niveldinamico": "0 metros",
    "numerodavazao": "0 m³/h",
    "solidspresent": "0 mg/l",
    "flowrate": "Zero"
  },
  {
    "name": "BA00000394",
    "latitude": -13.03861,
    "longitude": -38.68361,
    "state": "Bahia",
    "location": "Barra Grande",
    "county": "Vera Cruz",
    "depth": "13 Metros",
    "nivelestatico":"0 metros",
    "niveldinamico": "0 metros",
    "numerodavazao": "0 m³/h",
    "solidspresent": "0 mg/l",
    "flowrate": "Zero"
  },
  {
    "name": "BA00001081",
    "latitude": -13.06194,
    "longitude": -38.79417,
    "state": "Bahia",
    "location": "Jeribatuba",
    "county": "Vera Cruz",
    "depth": "31 Metros",
    "nivelestatico":"2 metros",
    "niveldinamico": "17,2 metros",
    "numerodavazao": "3,46 m³/h",
    "solidspresent": "52 mg/l",
    "flowrate": "Maior que zero e menor igual a cinco"
  },
  {
    "name": "BA00001083",
    "latitude": -13.11889,
    "longitude": -38.79500,
    "state": "Bahia",
    "location": "Caixa Prego",
    "county": "Vera Cruz",
    "depth": "30 Metros",
    "nivelestatico":"1,1 metros",
    "niveldinamico": "2,2 metros",
    "numerodavazao": "11,05 m³/h",
    "solidspresent": "0 mg/l",
    "flowrate": "Maior que dez e menor igual a vinte"
  },
  {
    "name": "BA00001090",
    "latitude": -12.99278,
    "longitude": -38.63472,
    "state": "Bahia",
    "location": "Barra do Gil",
    "county": "Vera Cruz",
    "depth": "8 Metros",
    "nivelestatico":"0,85 metros",
    "niveldinamico": "6,18 metros",
    "numerodavazao": "3,38 m³/h",
    "solidspresent": "492 mg/l",
    "flowrate": "Maior que zero e menor igual a cinco"
  },
  {
    "name": "BA00001481",
    "latitude": -13.02556,
    "longitude": -38.76694,
    "state": "Bahia",
    "location": "Dow Química (PW5-I)",
    "county": "Vera Cruz",
    "depth": "197 Metros",
    "nivelestatico":"43,75 metros",
    "niveldinamico": "82,76 metros",
    "numerodavazao": "19,8 m³/h",
    "solidspresent": "300 mg/l",
    "flowrate": "Maior que dez e menor igual a vinte"
  },
  {
    "name": "BA00001485",
    "latitude": -13.03305,
    "longitude": -38.77500,
    "state": "Bahia",
    "location": "Dow Química (PWB-II)",
    "county": "Vera Cruz",
    "depth": "165 Metros",
    "nivelestatico":"27,68 metros",
    "niveldinamico": "81,34 metros",
    "numerodavazao": "18 m³/h",
    "solidspresent": "394 mg/l",
    "flowrate": "Maior que dez e menor igual a vinte"
  },
  {
    "name": "BA00001486",
    "latitude": -13.02583,
    "longitude": -38.76722,
    "state": "Bahia",
    "location": "Dow Química (PW-III)",
    "county": "Vera Cruz",
    "depth": "59 Metros",
    "nivelestatico":"0 metros",
    "niveldinamico": "0 metros",
    "numerodavazao": "0 m³/h",
    "solidspresent": "0 mg/l",
    "flowrate": "Zero"
  },
  {
    "name": "BA00001496",
    "latitude": -13.01778,
    "longitude": -38.76333,
    "state": "Bahia",
    "location": "Dow Química (PW6-IV)",
    "county": "Vera Cruz",
    "depth": "150 Metros",
    "nivelestatico":"64,32 metros",
    "niveldinamico": "90,66 metros",
    "numerodavazao": "12,16 m³/h",
    "solidspresent": "358 mg/l",
    "flowrate": "Maior que dez e menor igual a vinte"
  },
  {
    "name": "BA00000545",
    "latitude": -13.00583,
    "longitude": -38.79139,
    "state": "Bahia",
    "location": "Cacoes",
    "county": "Jaguaripe",
    "depth": "48 Metros",
    "nivelestatico":"0,5 metros",
    "niveldinamico": "34,23 metros",
    "numerodavazao": "4,66 m³/h",
    "solidspresent": "160,2 mg/l",
    "flowrate": "Maior que zero e menor igual a cinco"
  },
  {
    "name": "BA00000552",
    "latitude": -12.96778,
    "longitude": -38.78500,
    "state": "Bahia",
    "location": "Pirajuia",
    "county": "Jaguaripe",
    "depth": "64,2 Metros",
    "nivelestatico":"0,58 metros",
    "niveldinamico": "47,37 metros",
    "numerodavazao": "5 m³/h",
    "solidspresent": "99,6 mg/l",
    "flowrate": "Maior que zero e menor igual a cinco"
  },
  {
    "name": "BA00001012",
    "latitude": -13.0375,
    "longitude": -38.84389,
    "state": "Bahia",
    "location": "Barreiras de Jucuruma",
    "county": "Jaguaripe",
    "depth": "50 Metros",
    "nivelestatico":"0 metros",
    "niveldinamico": "0 metros",
    "numerodavazao": "0 m³/h",
    "solidspresent": "0 mg/l",
    "flowrate": "Zero"
  },
  {
    "name": "BA00001074",
    "latitude": -12.98306,
    "longitude": -38.78778,
    "state": "Bahia",
    "location": "Muta II",
    "county": "Jaguaripe",
    "depth": "21 Metros",
    "nivelestatico":"0 metros",
    "niveldinamico": "0 metros",
    "numerodavazao": "0 m³/h",
    "solidspresent": "0 mg/l",
    "flowrate": "Zero"
  },
  {
    "name": "BA00001818",
    "latitude": -13.11250,
    "longitude": -38.89750,
    "state": "Bahia",
    "location": "Sede II",
    "county": "Jaguaripe",
    "depth": "50 Metros",
    "nivelestatico":"7 metros",
    "niveldinamico": "49,37 metros",
    "numerodavazao": "4,14 m³/h",
    "solidspresent": "74 mg/l",
    "flowrate": "Maior que zero e menor igual a cinco"
  },
  {
    "name": "BA00000301",
    "latitude": -12.94917,
    "longitude": -38.64667,
    "state": "Bahia",
    "location": "Cantagalo",
    "county": "Itaparica",
    "depth": "155 Metros",
    "nivelestatico":"4 metros",
    "niveldinamico": "37 metros",
    "numerodavazao": "1,38 m³/h",
    "solidspresent": "895 mg/l",
    "flowrate": "Maior que zero e menor igual a cinco"
  }
]